Addresses,lat,lon
"Klahanie Drive Southeast, Sammamish, Washington 98029",47.574002,-121.998251
"6300 East Lake Sammamish Parkway Southeast, Issaquah, Washington 98029",47.545283,-122.037268
"1801 10th Avenue Northwest, Issaquah, Washington 98027",47.551386,-122.052785
"26458 Maple Valley Black Diamond Road Southeast, Maple Valley, Washington 98038",47.363908,-122.020683
"1540 Northwest Gilman Boulevard, Issaquah, Washington 98027",47.546594,-122.060371
"27203 216th Avenue Southeast SUITE D, Maple Valley, Washington 98038",47.357066,-122.055878
"17432 Southeast 270th Place, Covington, Washington 98042",47.360753,-122.108875
"14410 Southeast Petrovitsky Road Suite 104, Renton, Washington 98058",47.444425,-122.148158
"15100 Southeast 38th Street, Bellevue, Washington 98006",47.576666,-122.137259
"27500 168th Place Southeast, Covington, Washington 98042",47.354984,-122.116931
"3801 150th Avenue Southeast, Bellevue, Washington 98006",47.575636,-122.140657
"27520 Covington Way Southeast, Covington, Washington 98042",47.355093,-122.121368
"3901 Northeast 4th Street Suite 105 , Renton, Washington 98056",47.48785,-122.165287
"14350 Southeast Eastgate Way, Bellevue, Washington 98007",47.581159,-122.149881
"7203 129th Avenue Southeast Ste 100, Newcastle, Washington 98056",47.538068,-122.168095
"3116 Northeast Sunset Boulevard, Renton, Washington 98056",47.503585,-122.177978
"653 156th Avenue Northeast, Bellevue, Washington 98007",47.616405,-122.133526
"15063 Main Street, Bellevue, Washington 98007",47.608704,-122.13963
"4400 130th Place Southeast, Bellevue, Washington 98006",47.566368,-122.165853
"13451 Southeast 36th Street, Bellevue, Washington 98006",47.579006,-122.160768
"7725 188th Avenue Northeast, Redmond, Washington 98052",47.674381,-122.091161
"275 Bronson Way Northeast, Renton, Washington 98056",47.486632,-122.192625
"647 140th Avenue Northeast, Bellevue, Washington 98005",47.616783,-122.154325
"1215 North Landing Way, Renton, Washington 98057",47.496213,-122.199897
"10712 Southeast Carr Road, Renton, Washington 98055",47.445701,-122.197887
"1205 North 10th Street Suite C, Renton, Washington 98057",47.49767,-122.201466
"7370 170th Avenue Northeast, Redmond, Washington 98052",47.6697,-122.112512
"27112 132nd Avenue Southeast, Kent, Washington 98042",47.358803,-122.164818
"12946 Southeast Kent Kangley Road, Kent, Washington 98030",47.360063,-122.167074
"3915 Talbot Road South Suite 401, Renton, Washington 98055",47.444327,-122.21224
"15809 Bear Creek Parkway Suite 100, Redmond, Washington 98052",47.673323,-122.129274
"15840 Redmond Way, Redmond, Washington 98052",47.675764,-122.128229
"743 Rainier Avenue South, Renton, Washington 98057",47.472161,-122.221094
"11919 Northeast 8th Street, Bellevue, Washington 98005",47.61702,-122.180774
"1350 Garrett Street, Enumclaw, Washington 98022",47.200481,-121.988527
"24920 104th Avenue Southeast, Kent, Washington 98030",47.37865,-122.201426
"11511 Northeast 10th Street, Bellevue, Washington 98004",47.618606,-122.186761
"10407 Southeast 256th Street, Kent, Washington 98030",47.372201,-122.201815
"1603 116th Avenue Northeast Ste 111, Bellevue, Washington 98004",47.624865,-122.186789
"25742 104th Avenue Southeast, Kent, Washington 98030",47.370877,-122.200736
"26004 104th Avenue Southeast, Kent, Washington 98030",47.368524,-122.201849
"400 Costco Drive, Tukwila, Washington 98188",47.445599,-122.248335
"3023 78th Avenue Southeast, Mercer Island, Washington 98040",47.582804,-122.234475
"7707 Southeast 27th Street, Mercer Island, Washington 98040",47.586127,-122.234421
"521 2nd Place North Suite 11-103a , Kent, Washington 98032",47.386182,-122.236942
"233 2nd Avenue South, Kent, Washington 98032",47.380004,-122.235191
"100 Lane SUITE 100 , Kirkland, Washington 98033",47.673263,-122.187029
"8629 120th Avenue Northeast, Kirkland, Washington 98033",47.681187,-122.181499
"10625 Northeast 68th Street, Kirkland, Washington 98033",47.665955,-122.197592
"105 Washington Avenue North, Kent, Washington 98032",47.381857,-122.248169
"9000 Rainier Avenue South Ste C, Seattle, Washington 98118",47.522627,-122.269216
"7728 Rainier Avenue South, Seattle, Washington 98118",47.532646,-122.269681
"1416 Harvey Road Northeast, Auburn, Washington 98002",47.320859,-122.219883
"1231 Auburn Way North, Auburn, Washington 98002",47.31894,-122.223598
"14277 Tukwila International Boulevard, Tukwila, Washington 98168",47.475091,-122.284684
"3716 South 144th Street, Tukwila, Washington 98168",47.474521,-122.286109
"5316 Rainier Avenue South, Seattle, Washington 98118",47.554231,-122.279652
"3815 South Othello Street, Seattle, Washington 98118",47.536854,-122.284053
"1509 Auburn Way South, Auburn, Washington 98002",47.294362,-122.215189
"3828 South Graham Street UNIT B , Seattle, Washington 98118",47.546592,-122.284249
"4412 Rainier Avenue South, Seattle, Washington 98118",47.563611,-122.28739
"307 Main Street, Sultan, Washington 98294",47.862433,-121.817927
"31503 State Route 2, Sultan, Washington 98294",47.862226,-121.809346
"762 Outlet Collection Drive Southwest, Auburn, Washington 98001",47.301666,-122.240857
"1101 Outlet Collection Drive Southwest Suite 1369, Auburn, Washington 98001",47.299975,-122.246147
"21615 Pacific Highway South, Des Moines, Washington 98198",47.407641,-122.29932
"8720 14th Avenue South, Seattle, Washington 98108",47.5249,-122.314715
"4130 East Madison Street, Seattle, Washington 98112",47.635547,-122.278793
"419 1/2 West Main Street 1st Floor, Monroe, Washington 98272",47.853836,-121.975905
"17707 West Main Street, Monroe, Washington 98272",47.850907,-121.99303
"140 Southwest 146th Street, Burien, Washington 98166",47.472529,-122.336393
"24008 Snohomish Woodinville Road, Woodinville, Washington 98072",47.779532,-122.146572
"27055 Pacific Highway South, Des Moines, Washington 98198",47.359211,-122.311815
"28817 Military Road South, Federal Way, Washington 98003",47.342958,-122.302132
"1700 Airport Way South, Seattle, Washington 98134",47.58774,-122.321115
"17707 West Main Street, Monroe, Washington 98272",47.850907,-121.99303
"140 Southwest 146th Street, Burien, Washington 98166",47.472529,-122.336393
"24008 Snohomish Woodinville Road, Woodinville, Washington 98072",47.779532,-122.146572
"27055 Pacific Highway South, Des Moines, Washington 98198",47.359211,-122.311815
"18906 State Route 2, Monroe, Washington 98272",47.860528,-121.976888
"28817 Military Road South, Federal Way, Washington 98003",47.342958,-122.302132
"1700 Airport Way South, Seattle, Washington 98134",47.58774,-122.321115
"4401 4th Avenue South, Seattle, Washington 98134",47.565302,-122.33076
"611 12th Avenue South, Seattle, Washington 98144",47.597232,-122.318104
"4800 Sand Point Way Northeast, Seattle, Washington 98105",47.66243,-122.282291
"South 239th Street, Des Moines, Washington 98198",47.38742,-122.315835
"720 8th Avenue South, Seattle, Washington 98104",47.596128,-122.322179
"125 16th Avenue East, Seattle, Washington 98112",47.619021,-122.312206
"19191 North Kelsey Street, Monroe, Washington 98272",47.86557,-121.972528
"14434 Ambaum Boulevard Southwest Suite 5, Burien, Washington 98166",47.472939,-122.34666
"11913 Northeast 195th Street, Bothell, Washington 98011",47.768605,-122.180708
"21509 State Route 410 East STE 4, Bonney Lake, Washington 98391",47.168502,-122.142237
"201 Broadway East, Seattle, Washington 98102",47.620229,-122.321295
"2746 Northeast 45th Street, Seattle, Washington 98105",47.662311,-122.296415
"9650 15th Avenue Southwest, Seattle, Washington 98106",47.516084,-122.35349
"1900 South 314th Street, Federal Way, Washington 98003",47.321768,-122.309797
"18516 101st Avenue Northeast Suite 3, Bothell, Washington 98011",47.762308,-122.205494
"31405 18th Avenue South, Federal Way, Washington 98003",47.320271,-122.311147
"32015 Pacific Highway South, Federal Way, Washington 98003",47.314323,-122.315547
"9801 204th Avenue East, Bonney Lake, Washington 98391",47.167108,-122.159234
"1401 2nd Avenue, Seattle, Washington 98101",47.608459,-122.338562
"503 Westlake Avenue North, Seattle, Washington 98109",47.623385,-122.338855
"19205 State Route 410 East, Bonney Lake, Washington 98391",47.167658,-122.171845
"8415 Myers Road East, Bonney Lake, Washington 98391",47.180299,-122.191384
"34520 16th Avenue South, Federal Way, Washington 98003",47.292619,-122.310186
"35100 Enchanted Parkway South, Federal Way, Washington 98003",47.287247,-122.310254
"301 S 320th St, Federal Way, Washington 98003",47.314166,-122.331651
"1815 North 45th Street #110, Seattle, Washington 98103",47.661127,-122.335717
"1820 North 45th Street, Seattle, Washington 98103",47.661615,-122.335494
"531 Queen Anne Avenue North, Seattle, Washington 98109",47.624275,-122.357011
"710 South 348th Street Ste B, Federal Way, Washington 98003",47.290222,-122.324991
"729 Meridian Avenue East, Edgewood, Washington 98371",47.250424,-122.292742
"6800 East Green Lake Way North Ste 250, Seattle, Washington 98115",47.678133,-122.327895
"22631 Bothell Everett Highway, Bothell, Washington 98021",47.792757,-122.212974
"5217 California Avenue Southwest, Seattle, Washington 98136",47.555683,-122.387506
"4707 California Avenue Southwest, Seattle, Washington 98116",47.560876,-122.386959
"9800 4th Avenue Northeast, Seattle, Washington 98115",47.700872,-122.323786
"3136 East Main, Puyallup, Washington 98372",47.1921,-122.258154
"1401 Northwest 46th Street, Seattle, Washington 98107",47.662021,-122.374321
"8500 15th Avenue Northwest, Seattle, Washington 98117",47.690885,-122.376348
"10224 Airport Way Suite A , Snohomish, Washington 98296",47.903855,-122.099507
"926 164th Street Southeast, Mill Creek, Washington 98012",47.848735,-122.219432
"16222 Bothell Everett Highway, Mill Creek, Washington 98012",47.850803,-122.219415
"17617 Vashon Highway Southwest, Vashon, Washington 98070",47.446878,-122.460863
"1007 39th Avenue Southeast, Puyallup, Washington 98374",47.155421,-122.280051
"17524 Aurora Avenue North, Shoreline, Washington 98133",47.756802,-122.345305
"310 31st Avenue Southeast, Puyallup, Washington 98374",47.16137,-122.288701
"15808 Mill Creek Boulevard Suite 201, Mill Creek, Washington 98012",47.854709,-122.220994
"10030 Southwest 210th Street, Vashon, Washington 98070",47.417238,-122.463175
"3500 S Meridian #845, Puyallup, Washington 98373",47.157293,-122.295953
"North 205th Street, Shoreline, Washington 98133",47.777616,-122.355619
"1400 164th Street Southwest, Lynnwood, Washington 98087",47.849628,-122.255711
"18109 33rd Avenue West, Lynnwood, Washington 98037",47.834249,-122.273275
"1201 39th Avenue Southwest, Puyallup, Washington 98373",47.155736,-122.307767
"13110 Bothell Everett Highway, Everett, Washington 98208",47.879221,-122.206967
"10217 125th Street Court East, Puyallup, Washington 98374",47.142871,-122.291652
"20200 54th Avenue West, Lynnwood, Washington 98036",47.816063,-122.307293
"1708 East 44th Street, Tacoma, Washington 98404",47.217073,-122.405471
"10302 159th Street East, Puyallup, Washington 98374",47.111764,-122.265752
"1920 100th Street Southeast Bldg B, Everett, Washington 98208",47.906982,-122.205865
"209 Martin Luther King Junior Way, Tacoma, Washington 98405",47.260706,-122.453069
"316 North L Street, Tacoma, Washington 98403",47.260128,-122.456101
"11918 Airport Road, Everett, Washington 98204",47.89003,-122.258808
"1202 Martin Luther King Junior Way, Tacoma, Washington 98405",47.250705,-122.451851
"10302 Sunrise Boulevard East, Puyallup, Washington 98374",47.097627,-122.292437
"3737 Pacific Avenue, Tacoma, Washington 98418",47.223511,-122.433388
"1307 South 11th Street, Tacoma, Washington 98405",47.251876,-122.455173
"11400 Highway 99, Everett, Washington 98204",47.895073,-122.253485
"1112 South Cushman Avenue, Tacoma, Washington 98405",47.250784,-122.457731
"9502 176th Street East, Puyallup, Washington 98375",47.095813,-122.303539
"186th Place East, Puyallup, Washington 98375",47.086939,-122.295141